{
  "metadata": {
    "description": "Comprehensive US nuclear war target list with verified coordinates",
    "generated": "2026-03-21",
    "coordinate_sources": "US Census Bureau, Wikipedia, latitude.to, GPS-coordinates.org, AirNav, NOAA, DOE/NNSA",
    "notes": "Coordinates represent facility/city center points. Metro populations from 2024 Census estimates."
  },
  "targets": [
    {
      "category": "ICBM",
      "targets": [
        {"name": "Malmstrom AFB", "lat": 47.5050, "lng": -111.1872, "type": "ICBM Base", "description": "341st Missile Wing, 150 Minuteman III silos across central Montana"},
        {"name": "Minot AFB", "lat": 48.4159, "lng": -101.3306, "type": "ICBM Base", "description": "91st Missile Wing, 150 Minuteman III silos across North Dakota"},
        {"name": "F.E. Warren AFB", "lat": 41.1265, "lng": -104.8668, "type": "ICBM Base", "description": "90th Missile Wing, 150 Minuteman III silos across WY/CO/NE"},
        {"name": "Malmstrom MAF Alpha (A-01)", "lat": 47.2817, "lng": -110.8008, "type": "Missile Alert Facility", "description": "Launch Control Center, 341st MW, SE of Belt, MT"},
        {"name": "Malmstrom MAF Foxtrot (F-01)", "lat": 47.6047, "lng": -112.3106, "type": "Missile Alert Facility", "description": "Launch Control Center, 341st MW, NNE of Augusta, MT"},
        {"name": "Malmstrom MAF Kilo (K-01)", "lat": 46.4453, "lng": -109.8014, "type": "Missile Alert Facility", "description": "Launch Control Center, 341st MW, near Harlowton, MT"},
        {"name": "Malmstrom MAF Papa (P-00)", "lat": 48.2050, "lng": -111.9086, "type": "Missile Alert Facility", "description": "Launch Control Center, 341st MW, NE of Conrad, MT"}
      ]
    },
    {
      "category": "Strategic Bombers",
      "targets": [
        {"name": "Whiteman AFB", "lat": 38.7289, "lng": -93.5605, "type": "B-2 Base", "description": "509th Bomb Wing, all 19 B-2 Spirit stealth bombers, nuclear-capable"},
        {"name": "Barksdale AFB", "lat": 32.5019, "lng": -93.6626, "type": "B-52 Base", "description": "2nd Bomb Wing, ~44 B-52H Stratofortress bombers, AFGSC HQ"},
        {"name": "Minot AFB", "lat": 48.4159, "lng": -101.3306, "type": "B-52 Base", "description": "5th Bomb Wing, B-52H bombers (also ICBM base above)"},
        {"name": "Dyess AFB", "lat": 32.4185, "lng": -99.8565, "type": "B-1B Base", "description": "7th Bomb Wing, ~33 B-1B Lancers, sole B-1B training unit"},
        {"name": "Ellsworth AFB", "lat": 44.1453, "lng": -103.1022, "type": "B-1B Base", "description": "28th Bomb Wing, B-1B Lancers, future B-21 Raider base"}
      ]
    },
    {
      "category": "Nuclear Submarine Bases",
      "targets": [
        {"name": "Naval Base Kitsap-Bangor", "lat": 47.7195, "lng": -122.7191, "type": "SSBN Base", "description": "Pacific Fleet Trident base, 8 Ohio-class SSBNs, SWFPAC nuclear weapons facility"},
        {"name": "Naval Submarine Base Kings Bay", "lat": 30.7968, "lng": -81.5328, "type": "SSBN Base", "description": "Atlantic Fleet Trident base, 6 Ohio-class SSBNs, SWFLANT nuclear weapons facility"}
      ]
    },
    {
      "category": "Command & Control",
      "targets": [
        {"name": "Cheyenne Mountain Complex", "lat": 38.7443, "lng": -104.8468, "type": "Hardened Command Center", "description": "NORAD/USNORTHCOM alternate command center, deep underground bunker"},
        {"name": "Peterson Space Force Base", "lat": 38.8236, "lng": -104.6950, "type": "Command HQ", "description": "NORAD & USNORTHCOM headquarters, Space Force operations"},
        {"name": "Offutt AFB", "lat": 41.1243, "lng": -95.9146, "type": "Strategic Command HQ", "description": "US Strategic Command (USSTRATCOM) headquarters, E-4B Nightwatch base"},
        {"name": "The Pentagon", "lat": 38.8719, "lng": -77.0563, "type": "National Command Authority", "description": "Department of Defense headquarters, National Military Command Center"},
        {"name": "The White House", "lat": 38.8977, "lng": -77.0366, "type": "National Command Authority", "description": "President/Commander-in-Chief residence, Situation Room"},
        {"name": "US Capitol Building", "lat": 38.8898, "lng": -77.0091, "type": "Government Continuity", "description": "Seat of Congress, legislative branch headquarters"},
        {"name": "Raven Rock Mountain Complex (Site R)", "lat": 39.7340, "lng": -77.4190, "type": "Alternate Command Center", "description": "Alternate National Military Command Center, underground Pentagon backup"},
        {"name": "Mount Weather EOC", "lat": 39.0645, "lng": -77.8899, "type": "Continuity of Government", "description": "FEMA continuity of government facility, presidential fallout shelter"},
        {"name": "Camp David", "lat": 39.6483, "lng": -77.4650, "type": "Presidential Facility", "description": "Presidential retreat, near Raven Rock, hardened communications"},
        {"name": "Tinker AFB", "lat": 35.4148, "lng": -97.3866, "type": "TACAMO Base", "description": "E-6B Mercury TACAMO base, nuclear communications relay to submarines"},
        {"name": "Joint Base Andrews", "lat": 38.8108, "lng": -76.8674, "type": "Presidential Support", "description": "Air Force One base, National Capital Region defense"},
        {"name": "Schriever Space Force Base", "lat": 38.8033, "lng": -104.5256, "type": "Space Command", "description": "Satellite command & control for 170+ DoD satellites, missile warning"},
        {"name": "Buckley Space Force Base", "lat": 39.7010, "lng": -104.7510, "type": "Missile Warning", "description": "Space-based infrared missile warning, intelligence processing"}
      ]
    },
    {
      "category": "Nuclear Weapons Production & Storage",
      "targets": [
        {"name": "Pantex Plant", "lat": 35.3116, "lng": -101.5597, "type": "Weapons Assembly", "description": "Only US nuclear weapons assembly/disassembly facility, Amarillo TX"},
        {"name": "Y-12 National Security Complex", "lat": 35.9863, "lng": -84.2528, "type": "Weapons Production", "description": "Enriched uranium weapons components, Oak Ridge TN"},
        {"name": "Los Alamos National Laboratory", "lat": 35.8757, "lng": -106.2923, "type": "Weapons Design Lab", "description": "Nuclear weapons design & plutonium science, Los Alamos NM"},
        {"name": "Lawrence Livermore National Lab", "lat": 37.6858, "lng": -121.7055, "type": "Weapons Design Lab", "description": "Nuclear weapons research & design, Livermore CA"},
        {"name": "Sandia National Laboratories (NM)", "lat": 35.0507, "lng": -106.5431, "type": "Weapons Engineering", "description": "Non-nuclear weapons components R&D, Kirtland AFB, Albuquerque NM"},
        {"name": "Sandia National Laboratories (CA)", "lat": 37.6744, "lng": -121.7066, "type": "Weapons Engineering", "description": "California branch, adjacent to LLNL, Livermore CA"},
        {"name": "Savannah River Site", "lat": 33.2464, "lng": -81.6679, "type": "Tritium Production", "description": "Tritium supply & processing for nuclear weapons, Aiken SC"},
        {"name": "Kansas City National Security Campus", "lat": 38.9581, "lng": -94.5689, "type": "Non-Nuclear Components", "description": "Electronic, mechanical & material components for nuclear weapons"},
        {"name": "Nevada National Security Site", "lat": 37.1167, "lng": -116.0500, "type": "Test Site", "description": "Former nuclear test site, subcritical experiments, stockpile stewardship"},
        {"name": "Kirtland AFB", "lat": 35.0403, "lng": -106.6092, "type": "Weapons Storage", "description": "Largest nuclear weapons storage area in US (Manzano/Coyote Canyon), Sandia base"},
        {"name": "Oak Ridge National Laboratory", "lat": 35.9310, "lng": -84.3100, "type": "Nuclear Research", "description": "DOE multipurpose research lab, Oak Ridge TN"}
      ]
    },
    {
      "category": "Major Military Installations",
      "targets": [
        {"name": "MacDill AFB (CENTCOM/SOCOM)", "lat": 27.8493, "lng": -82.5212, "type": "Combatant Command HQ", "description": "US Central Command & Special Operations Command headquarters, Tampa FL"},
        {"name": "Fort Bragg", "lat": 35.1392, "lng": -78.9992, "type": "Army Base", "description": "XVIII Airborne Corps, Army Special Operations Command, 52,000+ personnel"},
        {"name": "Fort Hood (Fort Cavazos)", "lat": 31.1363, "lng": -97.7797, "type": "Army Base", "description": "III Corps, 1st Cavalry Division, largest active-duty armored post"},
        {"name": "Camp Pendleton", "lat": 33.3000, "lng": -117.3500, "type": "Marine Corps Base", "description": "I Marine Expeditionary Force, major West Coast Marine base"},
        {"name": "Camp Lejeune", "lat": 34.5890, "lng": -77.3388, "type": "Marine Corps Base", "description": "II Marine Expeditionary Force, major East Coast Marine base"},
        {"name": "Naval Station Norfolk", "lat": 36.9474, "lng": -76.3169, "type": "Naval Base", "description": "World's largest naval station, Fleet Forces Command HQ, 75+ ships"},
        {"name": "Naval Base San Diego", "lat": 32.6756, "lng": -117.1199, "type": "Naval Base", "description": "Principal Pacific Fleet homeport, 50+ ships"},
        {"name": "Joint Base Pearl Harbor-Hickam", "lat": 21.3489, "lng": -157.9436, "type": "Naval/Air Base", "description": "US Pacific Fleet HQ, US Indo-Pacific Command nearby"},
        {"name": "NSA - Fort Meade", "lat": 39.1090, "lng": -76.7700, "type": "Intelligence HQ", "description": "National Security Agency & US Cyber Command headquarters"},
        {"name": "CIA - Langley", "lat": 38.9518, "lng": -77.1466, "type": "Intelligence HQ", "description": "Central Intelligence Agency headquarters, Fairfax County VA"},
        {"name": "DIA - Anacostia-Bolling", "lat": 38.8463, "lng": -77.0132, "type": "Intelligence HQ", "description": "Defense Intelligence Agency headquarters, Washington DC"},
        {"name": "Fort Meade", "lat": 39.1082, "lng": -76.7432, "type": "Army/Cyber", "description": "US Army Cyber Command, NSA co-located"},
        {"name": "Nellis AFB", "lat": 36.2414, "lng": -115.0508, "type": "Air Force Base", "description": "USAF Warfare Center, largest air combat training range (NTTR)"},
        {"name": "Travis AFB", "lat": 38.2721, "lng": -121.9399, "type": "Air Force Base", "description": "Largest Air Mobility Command base on West Coast, strategic airlift"},
        {"name": "Fairchild AFB", "lat": 47.6188, "lng": -117.6483, "type": "Air Force Base", "description": "KC-135 tanker base, survival school, strategic refueling support"},
        {"name": "Beale AFB", "lat": 39.1388, "lng": -121.4389, "type": "Air Force Base", "description": "ISR hub, U-2 Dragon Lady, Global Hawk operations"},
        {"name": "Creech AFB", "lat": 36.5863, "lng": -115.6774, "type": "Air Force Base", "description": "MQ-9 Reaper drone operations center, combat UAV hub"},
        {"name": "Fort Eisenhower (formerly Gordon)", "lat": 33.4170, "lng": -82.1350, "type": "Army Base", "description": "US Army Cyber Center of Excellence, signals intelligence training"},
        {"name": "Redstone Arsenal", "lat": 34.6849, "lng": -86.6530, "type": "Army Base", "description": "Army missile/aviation, Space & Missile Defense Command, Huntsville AL"},
        {"name": "Wright-Patterson AFB", "lat": 39.8261, "lng": -84.0483, "type": "Air Force Base", "description": "Air Force Materiel Command HQ, National Air & Space Intel Center"}
      ]
    },
    {
      "category": "Critical Infrastructure - Ports",
      "targets": [
        {"name": "Port of Los Angeles", "lat": 33.7292, "lng": -118.2620, "type": "Major Port", "description": "Largest container port in Western Hemisphere"},
        {"name": "Port of Long Beach", "lat": 33.7542, "lng": -118.2165, "type": "Major Port", "description": "Second busiest US port, adjacent to Port of LA"},
        {"name": "Port of Houston", "lat": 29.6111, "lng": -95.0217, "type": "Major Port", "description": "Largest US port by tonnage, 25-mile ship channel complex"},
        {"name": "Port of Savannah", "lat": 32.0809, "lng": -81.0912, "type": "Major Port", "description": "Fastest-growing major US container port"},
        {"name": "Port of New York/New Jersey", "lat": 40.6683, "lng": -74.0364, "type": "Major Port", "description": "Largest East Coast port, Newark-Elizabeth complex"},
        {"name": "Port of Norfolk/Hampton Roads", "lat": 36.8508, "lng": -76.2859, "type": "Major Port", "description": "Deep-water port, coal export, naval operations"},
        {"name": "Port of Seattle/Tacoma", "lat": 47.5815, "lng": -122.3480, "type": "Major Port", "description": "Northwest Seaport Alliance, major Pacific trade hub"},
        {"name": "Port of Charleston", "lat": 32.7876, "lng": -79.9249, "type": "Major Port", "description": "Major East Coast container port, deep water"}
      ]
    },
    {
      "category": "Critical Infrastructure - Refineries",
      "targets": [
        {"name": "Houston Ship Channel Refinery Complex", "lat": 29.7500, "lng": -95.0800, "type": "Refinery Cluster", "description": "Multiple refineries, 2.6M bbl/day capacity, Baytown/Deer Park/Pasadena"},
        {"name": "Port Arthur Refinery Complex", "lat": 29.9000, "lng": -93.9300, "type": "Refinery Cluster", "description": "Motiva (607K bbl/day), Valero (435K bbl/day), TotalEnergies refineries"},
        {"name": "Texas City/Galveston Bay Refinery", "lat": 29.3800, "lng": -94.9000, "type": "Refinery", "description": "Marathon Galveston Bay, largest US refinery at 631K bbl/day"},
        {"name": "Beaumont Refinery Complex", "lat": 30.0800, "lng": -94.1000, "type": "Refinery Cluster", "description": "ExxonMobil Beaumont (609K bbl/day) and other refineries"},
        {"name": "Baton Rouge Refinery Complex", "lat": 30.4515, "lng": -91.1871, "type": "Refinery Cluster", "description": "ExxonMobil Baton Rouge, second largest US refinery"},
        {"name": "Whiting Refinery (Chicago area)", "lat": 41.6792, "lng": -87.4946, "type": "Refinery", "description": "BP Whiting, largest inland refinery, 435K bbl/day"},
        {"name": "Philadelphia/Delaware Valley Refineries", "lat": 39.8750, "lng": -75.2400, "type": "Refinery Cluster", "description": "PBF Energy, Monroe Energy, East Coast refining hub"},
        {"name": "Los Angeles Basin Refineries", "lat": 33.8900, "lng": -118.2400, "type": "Refinery Cluster", "description": "Multiple refineries, Marathon, Valero, Phillips 66, Torrance/Carson/Wilmington"},
        {"name": "San Francisco Bay Refineries", "lat": 38.0200, "lng": -122.2300, "type": "Refinery Cluster", "description": "Chevron Richmond, Marathon Martinez, PBF Martinez, Valero Benicia"}
      ]
    },
    {
      "category": "Metro Areas 500K+",
      "targets": [
        {"name": "New York-Newark-Jersey City", "lat": 40.7128, "lng": -74.0060, "type": "Metro Area", "description": "Pop ~19.9M, largest US metro, financial capital"},
        {"name": "Los Angeles-Long Beach-Anaheim", "lat": 34.0522, "lng": -118.2437, "type": "Metro Area", "description": "Pop ~13.2M, second largest metro"},
        {"name": "Chicago-Naperville-Elgin", "lat": 41.8781, "lng": -87.6298, "type": "Metro Area", "description": "Pop ~9.5M, major transportation hub"},
        {"name": "Dallas-Fort Worth-Arlington", "lat": 32.7767, "lng": -96.7970, "type": "Metro Area", "description": "Pop ~8.1M, major economic center"},
        {"name": "Houston-Pasadena-The Woodlands", "lat": 29.7604, "lng": -95.3698, "type": "Metro Area", "description": "Pop ~7.5M, energy capital, major refining center"},
        {"name": "Washington-Arlington-Alexandria", "lat": 38.9072, "lng": -77.0369, "type": "Metro Area", "description": "Pop ~6.4M, national capital, federal government center"},
        {"name": "Philadelphia-Camden-Wilmington", "lat": 39.9526, "lng": -75.1652, "type": "Metro Area", "description": "Pop ~6.3M, major East Coast metro"},
        {"name": "Miami-Fort Lauderdale-West Palm Beach", "lat": 25.7617, "lng": -80.1918, "type": "Metro Area", "description": "Pop ~6.2M, SOUTHCOM nearby"},
        {"name": "Atlanta-Sandy Springs-Roswell", "lat": 33.7490, "lng": -84.3880, "type": "Metro Area", "description": "Pop ~6.3M, major transportation/logistics hub, CDC HQ"},
        {"name": "Boston-Cambridge-Newton", "lat": 42.3601, "lng": -71.0589, "type": "Metro Area", "description": "Pop ~5.0M, major biotech/education center"},
        {"name": "Phoenix-Mesa-Chandler", "lat": 33.4484, "lng": -112.0740, "type": "Metro Area", "description": "Pop ~5.1M, Luke AFB nearby"},
        {"name": "San Francisco-Oakland-Berkeley", "lat": 37.7749, "lng": -122.4194, "type": "Metro Area", "description": "Pop ~4.7M, tech capital, major port"},
        {"name": "Riverside-San Bernardino-Ontario", "lat": 33.9533, "lng": -117.3962, "type": "Metro Area", "description": "Pop ~4.7M, Inland Empire, March ARB"},
        {"name": "Detroit-Warren-Dearborn", "lat": 42.3314, "lng": -83.0458, "type": "Metro Area", "description": "Pop ~4.3M, major manufacturing/auto center"},
        {"name": "Seattle-Tacoma-Bellevue", "lat": 47.6062, "lng": -122.3321, "type": "Metro Area", "description": "Pop ~4.1M, Boeing, major tech hub, near Bangor SSBN base"},
        {"name": "Minneapolis-St. Paul-Bloomington", "lat": 44.9778, "lng": -93.2650, "type": "Metro Area", "description": "Pop ~3.7M, major Midwest metro"},
        {"name": "San Diego-Chula Vista-Carlsbad", "lat": 32.7157, "lng": -117.1611, "type": "Metro Area", "description": "Pop ~3.3M, major military complex, Naval Base San Diego"},
        {"name": "Tampa-St. Petersburg-Clearwater", "lat": 27.9506, "lng": -82.4572, "type": "Metro Area", "description": "Pop ~3.3M, MacDill AFB/CENTCOM/SOCOM"},
        {"name": "Denver-Aurora-Lakewood", "lat": 39.7392, "lng": -104.9903, "type": "Metro Area", "description": "Pop ~3.0M, near Buckley SFB, Schriever SFB, Cheyenne Mountain"},
        {"name": "St. Louis, MO-IL", "lat": 38.6270, "lng": -90.1994, "type": "Metro Area", "description": "Pop ~2.8M, major river/transportation hub"},
        {"name": "Baltimore-Columbia-Towson", "lat": 39.2904, "lng": -76.6122, "type": "Metro Area", "description": "Pop ~2.8M, NSA/Fort Meade, major port"},
        {"name": "Orlando-Kissimmee-Sanford", "lat": 28.5383, "lng": -81.3792, "type": "Metro Area", "description": "Pop ~2.8M"},
        {"name": "Charlotte-Concord-Gastonia", "lat": 35.2271, "lng": -80.8431, "type": "Metro Area", "description": "Pop ~2.8M, major banking center"},
        {"name": "San Antonio-New Braunfels", "lat": 29.4241, "lng": -98.4936, "type": "Metro Area", "description": "Pop ~2.7M, Lackland AFB, Fort Sam Houston, JBSA"},
        {"name": "Portland-Vancouver-Hillsboro", "lat": 45.5152, "lng": -122.6784, "type": "Metro Area", "description": "Pop ~2.5M, major West Coast metro"},
        {"name": "Sacramento-Roseville-Folsom", "lat": 38.5816, "lng": -121.4944, "type": "Metro Area", "description": "Pop ~2.4M, state capital, Beale AFB nearby"},
        {"name": "Pittsburgh", "lat": 40.4406, "lng": -79.9959, "type": "Metro Area", "description": "Pop ~2.4M, major industrial center"},
        {"name": "Austin-Round Rock-Georgetown", "lat": 30.2672, "lng": -97.7431, "type": "Metro Area", "description": "Pop ~2.4M, fast-growing tech hub"},
        {"name": "Las Vegas-Henderson-North Las Vegas", "lat": 36.1699, "lng": -115.1398, "type": "Metro Area", "description": "Pop ~2.3M, Nellis AFB, Creech AFB, NNSS nearby"},
        {"name": "Cincinnati, OH-KY-IN", "lat": 39.1031, "lng": -84.5120, "type": "Metro Area", "description": "Pop ~2.3M"},
        {"name": "Kansas City, MO-KS", "lat": 39.0997, "lng": -94.5786, "type": "Metro Area", "description": "Pop ~2.2M, KC National Security Campus"},
        {"name": "Columbus, OH", "lat": 39.9612, "lng": -82.9988, "type": "Metro Area", "description": "Pop ~2.2M, Defense Supply Center Columbus"},
        {"name": "Indianapolis-Carmel-Anderson", "lat": 39.7684, "lng": -86.1581, "type": "Metro Area", "description": "Pop ~2.1M"},
        {"name": "Cleveland-Elyria", "lat": 41.4993, "lng": -81.6944, "type": "Metro Area", "description": "Pop ~2.1M, NASA Glenn Research Center"},
        {"name": "San Jose-Sunnyvale-Santa Clara", "lat": 37.3382, "lng": -121.8863, "type": "Metro Area", "description": "Pop ~2.0M, Silicon Valley, major tech/defense industry"},
        {"name": "Nashville-Davidson-Murfreesboro-Franklin", "lat": 36.1627, "lng": -86.7816, "type": "Metro Area", "description": "Pop ~2.0M"},
        {"name": "Virginia Beach-Norfolk-Newport News", "lat": 36.8529, "lng": -75.9780, "type": "Metro Area", "description": "Pop ~1.8M, Naval Station Norfolk, Langley AFB, shipbuilding"},
        {"name": "Raleigh-Cary", "lat": 35.7796, "lng": -78.6382, "type": "Metro Area", "description": "Pop ~1.5M, Research Triangle"},
        {"name": "Milwaukee-Waukesha", "lat": 43.0389, "lng": -87.9065, "type": "Metro Area", "description": "Pop ~1.6M"},
        {"name": "Jacksonville, FL", "lat": 30.3322, "lng": -81.6557, "type": "Metro Area", "description": "Pop ~1.7M, Naval Station Mayport"},
        {"name": "Oklahoma City", "lat": 35.4676, "lng": -97.5164, "type": "Metro Area", "description": "Pop ~1.5M, Tinker AFB"},
        {"name": "Memphis, TN-MS-AR", "lat": 35.1495, "lng": -90.0490, "type": "Metro Area", "description": "Pop ~1.3M, FedEx hub, major logistics"},
        {"name": "Richmond, VA", "lat": 37.5407, "lng": -77.4360, "type": "Metro Area", "description": "Pop ~1.3M, Defense Supply Center Richmond"},
        {"name": "Louisville/Jefferson County, KY-IN", "lat": 38.2527, "lng": -85.7585, "type": "Metro Area", "description": "Pop ~1.3M, Fort Knox nearby"},
        {"name": "New Orleans-Metairie", "lat": 29.9511, "lng": -90.0715, "type": "Metro Area", "description": "Pop ~1.3M, major port, Naval Air Station JRB"},
        {"name": "Salt Lake City, UT", "lat": 40.7608, "lng": -111.8910, "type": "Metro Area", "description": "Pop ~1.3M, Hill AFB, Tooele Army Depot"},
        {"name": "Hartford-East Hartford-Middletown", "lat": 41.7658, "lng": -72.6734, "type": "Metro Area", "description": "Pop ~1.2M, Pratt & Whitney (jet engines), submarine parts manufacturing"},
        {"name": "Buffalo-Cheektowaga", "lat": 42.8864, "lng": -78.8784, "type": "Metro Area", "description": "Pop ~1.1M"},
        {"name": "Birmingham-Hoover, AL", "lat": 33.5186, "lng": -86.8104, "type": "Metro Area", "description": "Pop ~1.1M"},
        {"name": "Rochester, NY", "lat": 43.1566, "lng": -77.6088, "type": "Metro Area", "description": "Pop ~1.1M"},
        {"name": "Grand Rapids-Kentwood, MI", "lat": 42.9634, "lng": -85.6681, "type": "Metro Area", "description": "Pop ~1.1M"},
        {"name": "Tucson, AZ", "lat": 32.2226, "lng": -110.9747, "type": "Metro Area", "description": "Pop ~1.1M, Davis-Monthan AFB, AMARG boneyard"},
        {"name": "Tulsa, OK", "lat": 36.1540, "lng": -95.9928, "type": "Metro Area", "description": "Pop ~1.0M"},
        {"name": "Fresno, CA", "lat": 36.7378, "lng": -119.7871, "type": "Metro Area", "description": "Pop ~1.0M"},
        {"name": "Urban Honolulu, HI", "lat": 21.3069, "lng": -157.8583, "type": "Metro Area", "description": "Pop ~1.0M, JBPHH, Indo-Pacific Command"},
        {"name": "Bridgeport-Stamford-Norwalk, CT", "lat": 41.1865, "lng": -73.1952, "type": "Metro Area", "description": "Pop ~950K"},
        {"name": "Worcester, MA-CT", "lat": 42.2626, "lng": -71.8023, "type": "Metro Area", "description": "Pop ~950K"},
        {"name": "Omaha-Council Bluffs, NE-IA", "lat": 41.2565, "lng": -95.9345, "type": "Metro Area", "description": "Pop ~970K, Offutt AFB/STRATCOM"},
        {"name": "Albuquerque, NM", "lat": 35.0844, "lng": -106.6504, "type": "Metro Area", "description": "Pop ~920K, Kirtland AFB, Sandia Labs, major nuclear weapons complex"},
        {"name": "New Haven-Milford, CT", "lat": 41.3083, "lng": -72.9279, "type": "Metro Area", "description": "Pop ~870K, Electric Boat submarine manufacturing (Groton nearby)"},
        {"name": "Albany-Schenectady-Troy, NY", "lat": 42.6526, "lng": -73.7562, "type": "Metro Area", "description": "Pop ~890K"},
        {"name": "Bakersfield, CA", "lat": 35.3733, "lng": -119.0187, "type": "Metro Area", "description": "Pop ~910K, Edwards AFB nearby"},
        {"name": "Knoxville, TN", "lat": 35.9606, "lng": -83.9207, "type": "Metro Area", "description": "Pop ~900K, Y-12/ORNL 15 miles away"},
        {"name": "McAllen-Edinburg-Mission, TX", "lat": 26.2034, "lng": -98.2300, "type": "Metro Area", "description": "Pop ~880K"},
        {"name": "Boise City, ID", "lat": 43.6150, "lng": -116.2023, "type": "Metro Area", "description": "Pop ~830K, Mountain Home AFB nearby"},
        {"name": "El Paso, TX", "lat": 31.7619, "lng": -106.4850, "type": "Metro Area", "description": "Pop ~870K, Fort Bliss, White Sands nearby"},
        {"name": "Oxnard-Thousand Oaks-Ventura, CA", "lat": 34.1975, "lng": -119.1771, "type": "Metro Area", "description": "Pop ~840K, Naval Base Ventura County/Point Mugu"},
        {"name": "Greenville-Anderson, SC", "lat": 34.8526, "lng": -82.3940, "type": "Metro Area", "description": "Pop ~950K"},
        {"name": "North Port-Sarasota-Bradenton, FL", "lat": 27.3364, "lng": -82.5307, "type": "Metro Area", "description": "Pop ~890K"},
        {"name": "Columbia, SC", "lat": 34.0007, "lng": -81.0348, "type": "Metro Area", "description": "Pop ~870K, Fort Jackson, Shaw AFB nearby"},
        {"name": "Provo-Orem, UT", "lat": 40.2338, "lng": -111.6585, "type": "Metro Area", "description": "Pop ~700K"},
        {"name": "Colorado Springs, CO", "lat": 38.8339, "lng": -104.8214, "type": "Metro Area", "description": "Pop ~780K, NORAD, Peterson SFB, Schriever SFB, Fort Carson"},
        {"name": "Dayton-Kettering, OH", "lat": 39.7589, "lng": -84.1916, "type": "Metro Area", "description": "Pop ~810K, Wright-Patterson AFB"},
        {"name": "Greensboro-High Point, NC", "lat": 36.0726, "lng": -79.7920, "type": "Metro Area", "description": "Pop ~780K"},
        {"name": "Des Moines-West Des Moines, IA", "lat": 41.5868, "lng": -93.6250, "type": "Metro Area", "description": "Pop ~710K"},
        {"name": "Little Rock-North Little Rock-Conway, AR", "lat": 34.7465, "lng": -92.2896, "type": "Metro Area", "description": "Pop ~750K, Little Rock AFB"},
        {"name": "Cape Coral-Fort Myers, FL", "lat": 26.6449, "lng": -81.8613, "type": "Metro Area", "description": "Pop ~840K"},
        {"name": "Charleston-North Charleston, SC", "lat": 32.7765, "lng": -79.9311, "type": "Metro Area", "description": "Pop ~850K, Joint Base Charleston"},
        {"name": "Ogden-Clearfield, UT", "lat": 41.2230, "lng": -111.9738, "type": "Metro Area", "description": "Pop ~720K, Hill AFB"},
        {"name": "Palm Bay-Melbourne-Titusville, FL", "lat": 28.0345, "lng": -80.5887, "type": "Metro Area", "description": "Pop ~640K, Patrick SFB, Cape Canaveral"},
        {"name": "Deltona-Daytona Beach-Ormond Beach, FL", "lat": 29.2108, "lng": -81.0229, "type": "Metro Area", "description": "Pop ~700K"},
        {"name": "Wichita, KS", "lat": 37.6872, "lng": -97.3301, "type": "Metro Area", "description": "Pop ~650K, McConnell AFB, aircraft manufacturing"},
        {"name": "Madison, WI", "lat": 43.0731, "lng": -89.4012, "type": "Metro Area", "description": "Pop ~680K"},
        {"name": "Lakeland-Winter Haven, FL", "lat": 28.0395, "lng": -81.9498, "type": "Metro Area", "description": "Pop ~760K"},
        {"name": "Harrisburg-Carlisle, PA", "lat": 40.2732, "lng": -76.8867, "type": "Metro Area", "description": "Pop ~610K"},
        {"name": "Chattanooga, TN-GA", "lat": 35.0456, "lng": -85.3097, "type": "Metro Area", "description": "Pop ~580K"},
        {"name": "Spokane-Spokane Valley, WA", "lat": 47.6588, "lng": -117.4260, "type": "Metro Area", "description": "Pop ~600K, Fairchild AFB"},
        {"name": "Durham-Chapel Hill, NC", "lat": 35.9940, "lng": -78.8986, "type": "Metro Area", "description": "Pop ~590K, Research Triangle"},
        {"name": "Stockton, CA", "lat": 37.9577, "lng": -121.2908, "type": "Metro Area", "description": "Pop ~780K"},
        {"name": "Fayetteville-Springdale-Rogers, AR", "lat": 36.0626, "lng": -94.1574, "type": "Metro Area", "description": "Pop ~580K"},
        {"name": "Scranton-Wilkes-Barre, PA", "lat": 41.4090, "lng": -75.6624, "type": "Metro Area", "description": "Pop ~570K, Tobyhanna Army Depot"},
        {"name": "Akron, OH", "lat": 41.0814, "lng": -81.5190, "type": "Metro Area", "description": "Pop ~700K"},
        {"name": "Reno, NV", "lat": 39.5296, "lng": -119.8138, "type": "Metro Area", "description": "Pop ~510K"},
        {"name": "Lexington-Fayette, KY", "lat": 38.0406, "lng": -84.5037, "type": "Metro Area", "description": "Pop ~530K, Bluegrass Army Depot"},
        {"name": "Pensacola-Ferry Pass-Brent, FL", "lat": 30.4213, "lng": -87.2169, "type": "Metro Area", "description": "Pop ~520K, NAS Pensacola"},
        {"name": "Modesto, CA", "lat": 37.6391, "lng": -120.9969, "type": "Metro Area", "description": "Pop ~570K"},
        {"name": "Port St. Lucie, FL", "lat": 27.2730, "lng": -80.3582, "type": "Metro Area", "description": "Pop ~520K"},
        {"name": "Winston-Salem, NC", "lat": 36.0999, "lng": -80.2442, "type": "Metro Area", "description": "Pop ~680K"},
        {"name": "Augusta-Richmond County, GA-SC", "lat": 33.4735, "lng": -81.9748, "type": "Metro Area", "description": "Pop ~620K, Fort Eisenhower (Army Cyber), near Savannah River Site"},
        {"name": "Huntsville, AL", "lat": 34.7304, "lng": -86.5861, "type": "Metro Area", "description": "Pop ~530K, Redstone Arsenal, NASA Marshall, missile defense"},
        {"name": "Lancaster, PA", "lat": 40.0379, "lng": -76.3055, "type": "Metro Area", "description": "Pop ~560K"}
      ]
    }
  ]
}
